[
  {
    "landId": "UKL001",
    "landName": "Malsi Degraded Patch",
    "state": "Uttarakhand",
    "district": "Dehradun",
    "nearbyForest": "Rajaji National Park",
    "latitude": 30.381,
    "longitude": 78.0786,
    "areaAcres": 120,
    "landType": "degraded",
    "soilType": "Sandy Loam",
    "waterAvailability": "medium",
    "reforestationPriority": 5
  },
  {
    "landId": "UKL002",
    "landName": "Asarori Barren Land",
    "state": "Uttarakhand",
    "district": "Dehradun",
    "nearbyForest": "Shivalik Forest Belt",
    "latitude": 30.245,
    "longitude": 77.928,
    "areaAcres": 85,
    "landType": "barren",
    "soilType": "Gravelly",
    "waterAvailability": "low",
    "reforestationPriority": 4
  },
  {
    "landId": "UKL003",
    "landName": "Haridwar Buffer Zone",
    "state": "Uttarakhand",
    "district": "Haridwar",
    "nearbyForest": "Rajaji National Park",
    "latitude": 29.9457,
    "longitude": 78.1642,
    "areaAcres": 150,
    "landType": "degraded",
    "soilType": "Alluvial",
    "waterAvailability": "high",
    "reforestationPriority": 5
  },
  {
    "landId": "UKL004",
    "landName": "Chakrata Hill Slope",
    "state": "Uttarakhand",
    "district": "Dehradun",
    "nearbyForest": "Chakrata Forest Division",
    "latitude": 30.7033,
    "longitude": 77.865,
    "areaAcres": 95,
    "landType": "degraded",
    "soilType": "Rocky Loam",
    "waterAvailability": "medium",
    "reforestationPriority": 4
  },
  {
    "landId": "UKL005",
    "landName": "Tehri Reservoir Edge",
    "state": "Uttarakhand",
    "district": "Tehri Garhwal",
    "nearbyForest": "Tehri Forest Division",
    "latitude": 30.3815,
    "longitude": 78.48,
    "areaAcres": 210,
    "landType": "abandoned",
    "soilType": "Silty Loam",
    "waterAvailability": "high",
    "reforestationPriority": 5
  },
  {
    "landId": "UKL006",
    "landName": "Narendranagar Farmland",
    "state": "Uttarakhand",
    "district": "Tehri Garhwal",
    "nearbyForest": "Narendranagar Forest Division",
    "latitude": 30.165,
    "longitude": 78.287,
    "areaAcres": 130,
    "landType": "abandoned",
    "soilType": "Sandy Loam",
    "waterAvailability": "medium",
    "reforestationPriority": 4
  },
  {
    "landId": "UKL007",
    "landName": "Pauri Ridge Land",
    "state": "Uttarakhand",
    "district": "Pauri Garhwal",
    "nearbyForest": "Pauri Forest Division",
    "latitude": 30.152,
    "longitude": 78.777,
    "areaAcres": 175,
    "landType": "degraded",
    "soilType": "Lateritic",
    "waterAvailability": "medium",
    "reforestationPriority": 5
  },
  {
    "landId": "UKL008",
    "landName": "Uttarkashi Alpine Buffer",
    "state": "Uttarakhand",
    "district": "Uttarkashi",
    "nearbyForest": "Gangotri National Park",
    "latitude": 30.995,
    "longitude": 78.94,
    "areaAcres": 90,
    "landType": "degraded",
    "soilType": "Mountain Loam",
    "waterAvailability": "medium",
    "reforestationPriority": 4
  },
  {
    "landId": "UKL009",
    "landName": "Almora Terrace Land",
    "state": "Uttarakhand",
    "district": "Almora",
    "nearbyForest": "Almora Forest Division",
    "latitude": 29.61,
    "longitude": 79.67,
    "areaAcres": 140,
    "landType": "abandoned",
    "soilType": "Loamy",
    "waterAvailability": "medium",
    "reforestationPriority": 4
  },
  {
    "landId": "UKL010",
    "landName": "Nainital Catchment Zone",
    "state": "Uttarakhand",
    "district": "Nainital",
    "nearbyForest": "Nainital Forest Division",
    "latitude": 29.3924,
    "longitude": 79.454,
    "areaAcres": 160,
    "landType": "degraded",
    "soilType": "Forest Loam",
    "waterAvailability": "high",
    "reforestationPriority": 5
  },

  {
    "landId": "UKL011",
    "landName": "Haldwani Foothill",
    "state": "Uttarakhand",
    "district": "Nainital",
    "nearbyForest": "Haldwani Forest Division",
    "latitude": 29.22,
    "longitude": 79.52,
    "areaAcres": 200,
    "landType": "barren",
    "soilType": "Alluvial",
    "waterAvailability": "medium",
    "reforestationPriority": 4
  },
  {
    "landId": "UKL012",
    "landName": "Champawat Hill Base",
    "state": "Uttarakhand",
    "district": "Champawat",
    "nearbyForest": "Champawat Forest Division",
    "latitude": 29.336,
    "longitude": 80.09,
    "areaAcres": 110,
    "landType": "degraded",
    "soilType": "Rocky Loam",
    "waterAvailability": "medium",
    "reforestationPriority": 4
  },
  {
    "landId": "UKL013",
    "landName": "Bageshwar Riverbank",
    "state": "Uttarakhand",
    "district": "Bageshwar",
    "nearbyForest": "Bageshwar Forest Division",
    "latitude": 29.84,
    "longitude": 79.77,
    "areaAcres": 155,
    "landType": "degraded",
    "soilType": "Alluvial",
    "waterAvailability": "high",
    "reforestationPriority": 5
  },
  {
    "landId": "UKL014",
    "landName": "Pithoragarh Mountain Slope",
    "state": "Uttarakhand",
    "district": "Pithoragarh",
    "nearbyForest": "Askot Wildlife Sanctuary",
    "latitude": 30.0,
    "longitude": 80.21,
    "areaAcres": 100,
    "landType": "degraded",
    "soilType": "Mountain Loam",
    "waterAvailability": "medium",
    "reforestationPriority": 4
  },
  {
    "landId": "UKL015",
    "landName": "Ramnagar Buffer Zone",
    "state": "Uttarakhand",
    "district": "Nainital",
    "nearbyForest": "Jim Corbett National Park",
    "latitude": 29.4,
    "longitude": 79.13,
    "areaAcres": 220,
    "landType": "abandoned",
    "soilType": "Alluvial",
    "waterAvailability": "high",
    "reforestationPriority": 5
  },

  {
    "landId": "UKL016",
    "landName": "Kotdwar Sal Fringe",
    "state": "Uttarakhand",
    "district": "Pauri Garhwal",
    "nearbyForest": "Corbett Landscape",
    "latitude": 29.74,
    "longitude": 78.52,
    "areaAcres": 180,
    "landType": "degraded",
    "soilType": "Sandy Loam",
    "waterAvailability": "medium",
    "reforestationPriority": 5
  },
  {
    "landId": "UKL017",
    "landName": "Lansdowne Ridge",
    "state": "Uttarakhand",
    "district": "Pauri Garhwal",
    "nearbyForest": "Lansdowne Forest",
    "latitude": 29.85,
    "longitude": 78.68,
    "areaAcres": 90,
    "landType": "degraded",
    "soilType": "Rocky Loam",
    "waterAvailability": "medium",
    "reforestationPriority": 4
  },
  {
    "landId": "UKL018",
    "landName": "Rudraprayag Slope Land",
    "state": "Uttarakhand",
    "district": "Rudraprayag",
    "nearbyForest": "Kedarnath Forest Range",
    "latitude": 30.3,
    "longitude": 78.98,
    "areaAcres": 130,
    "landType": "degraded",
    "soilType": "Mountain Loam",
    "waterAvailability": "medium",
    "reforestationPriority": 5
  },
  {
    "landId": "UKL019",
    "landName": "Karnaprayag Buffer",
    "state": "Uttarakhand",
    "district": "Chamoli",
    "nearbyForest": "Nanda Devi Biosphere",
    "latitude": 30.26,
    "longitude": 79.2,
    "areaAcres": 105,
    "landType": "degraded",
    "soilType": "Silty Loam",
    "waterAvailability": "high",
    "reforestationPriority": 5
  },
  {
    "landId": "UKL020",
    "landName": "Joshimath Hill Patch",
    "state": "Uttarakhand",
    "district": "Chamoli",
    "nearbyForest": "Nanda Devi National Park",
    "latitude": 30.555,
    "longitude": 79.56,
    "areaAcres": 75,
    "landType": "barren",
    "soilType": "Rocky",
    "waterAvailability": "low",
    "reforestationPriority": 3
  },

  {
    "landId": "UKL021",
    "landName": "Dwarahat Abandoned Terraces",
    "state": "Uttarakhand",
    "district": "Almora",
    "nearbyForest": "Almora Forest Division",
    "latitude": 29.78,
    "longitude": 79.43,
    "areaAcres": 115,
    "landType": "abandoned",
    "soilType": "Loamy",
    "waterAvailability": "medium",
    "reforestationPriority": 4
  },
  {
    "landId": "UKL022",
    "landName": "Someshwar Foothill",
    "state": "Uttarakhand",
    "district": "Almora",
    "nearbyForest": "Someshwar Forest",
    "latitude": 29.73,
    "longitude": 79.58,
    "areaAcres": 140,
    "landType": "degraded",
    "soilType": "Lateritic",
    "waterAvailability": "medium",
    "reforestationPriority": 4
  },
  {
    "landId": "UKL023",
    "landName": "Tanakpur River Belt",
    "state": "Uttarakhand",
    "district": "Champawat",
    "nearbyForest": "Sharda River Forest",
    "latitude": 29.08,
    "longitude": 80.1,
    "areaAcres": 160,
    "landType": "degraded",
    "soilType": "Alluvial",
    "waterAvailability": "high",
    "reforestationPriority": 5
  },
  {
    "landId": "UKL024",
    "landName": "Didihat Ridge",
    "state": "Uttarakhand",
    "district": "Pithoragarh",
    "nearbyForest": "Askot Landscape",
    "latitude": 29.95,
    "longitude": 80.35,
    "areaAcres": 95,
    "landType": "degraded",
    "soilType": "Mountain Loam",
    "waterAvailability": "medium",
    "reforestationPriority": 4
  },
  {
    "landId": "UKL025",
    "landName": "Munsiyari Alpine Fringe",
    "state": "Uttarakhand",
    "district": "Pithoragarh",
    "nearbyForest": "Askot Wildlife Sanctuary",
    "latitude": 30.06,
    "longitude": 80.25,
    "areaAcres": 80,
    "landType": "degraded",
    "soilType": "Alpine Soil",
    "waterAvailability": "medium",
    "reforestationPriority": 3
  },

  {
    "landId": "UKL026",
    "landName": "Kashipur Plain Patch",
    "state": "Uttarakhand",
    "district": "Udham Singh Nagar",
    "nearbyForest": "Terai Forest",
    "latitude": 29.2,
    "longitude": 78.95,
    "areaAcres": 210,
    "landType": "abandoned",
    "soilType": "Alluvial",
    "waterAvailability": "high",
    "reforestationPriority": 5
  },
  {
    "landId": "UKL027",
    "landName": "Sitarganj Barren Field",
    "state": "Uttarakhand",
    "district": "Udham Singh Nagar",
    "nearbyForest": "Terai Forest",
    "latitude": 28.93,
    "longitude": 79.7,
    "areaAcres": 170,
    "landType": "barren",
    "soilType": "Sandy",
    "waterAvailability": "medium",
    "reforestationPriority": 4
  },
  {
    "landId": "UKL028",
    "landName": "Bazpur Degraded Land",
    "state": "Uttarakhand",
    "district": "Udham Singh Nagar",
    "nearbyForest": "Corbett Landscape",
    "latitude": 29.17,
    "longitude": 78.98,
    "areaAcres": 145,
    "landType": "degraded",
    "soilType": "Alluvial",
    "waterAvailability": "medium",
    "reforestationPriority": 4
  },
  {
    "landId": "UKL029",
    "landName": "Lohaghat Ridge",
    "state": "Uttarakhand",
    "district": "Champawat",
    "nearbyForest": "Lohaghat Forest",
    "latitude": 29.41,
    "longitude": 80.09,
    "areaAcres": 100,
    "landType": "degraded",
    "soilType": "Rocky Loam",
    "waterAvailability": "medium",
    "reforestationPriority": 4
  },
  {
    "landId": "UKL030",
    "landName": "Khatima Terai Patch",
    "state": "Uttarakhand",
    "district": "Udham Singh Nagar",
    "nearbyForest": "Terai Forest",
    "latitude": 28.92,
    "longitude": 79.97,
    "areaAcres": 230,
    "landType": "abandoned",
    "soilType": "Alluvial",
    "waterAvailability": "high",
    "reforestationPriority": 5
  }
]
