{
  "lands": [
    {
      "landId": "WBL001",
      "landName": "Sundarbans Buffer Mangrove Land",
      "state": "West Bengal",
      "district": "South 24 Parganas",
      "nearbyForest": "Sundarbans National Park",
      "latitude": 21.9,
      "longitude": 89.15,
      "areaAcres": 320,
      "landType": "degraded",
      "soilType": "Saline Alluvial",
      "waterAvailability": "high",
      "reforestationPriority": 5
    },
    {
      "landId": "WBL002",
      "landName": "Teesta Riverbank Patch",
      "state": "West Bengal",
      "district": "Jalpaiguri",
      "nearbyForest": "Gorumara National Park",
      "latitude": 26.74,
      "longitude": 88.72,
      "areaAcres": 210,
      "landType": "abandoned",
      "soilType": "Alluvial",
      "waterAvailability": "high",
      "reforestationPriority": 5
    },
    {
      "landId": "WBL003",
      "landName": "Dooars Forest Fringe Land",
      "state": "West Bengal",
      "district": "Alipurduar",
      "nearbyForest": "Buxa Tiger Reserve",
      "latitude": 26.72,
      "longitude": 89.55,
      "areaAcres": 180,
      "landType": "degraded",
      "soilType": "Forest Loam",
      "waterAvailability": "medium",
      "reforestationPriority": 4
    },
    {
      "landId": "WBL004",
      "landName": "Darjeeling Hill Slope Patch",
      "state": "West Bengal",
      "district": "Darjeeling",
      "nearbyForest": "Neora Valley National Park",
      "latitude": 27.05,
      "longitude": 88.62,
      "areaAcres": 95,
      "landType": "degraded",
      "soilType": "Mountain Loam",
      "waterAvailability": "medium",
      "reforestationPriority": 4
    },
    {
      "landId": "WBL005",
      "landName": "Damodar River Degraded Belt",
      "state": "West Bengal",
      "district": "Bardhaman",
      "nearbyForest": "Riverine Plantation Zone",
      "latitude": 23.25,
      "longitude": 87.85,
      "areaAcres": 260,
      "landType": "abandoned",
      "soilType": "Alluvial",
      "waterAvailability": "high",
      "reforestationPriority": 5
    },
    {
      "landId": "WBL006",
      "landName": "Medinipur Coastal Patch",
      "state": "West Bengal",
      "district": "Medinipur",
      "nearbyForest": "Coastal Plantation Zone",
      "latitude": 21.65,
      "longitude": 87.85,
      "areaAcres": 150,
      "landType": "degraded",
      "soilType": "Coastal Sand",
      "waterAvailability": "medium",
      "reforestationPriority": 4
    },
    {
      "landId": "WBL007",
      "landName": "Kolkata Urban Fringe Land",
      "state": "West Bengal",
      "district": "Kolkata",
      "nearbyForest": "Urban Greening Zone",
      "latitude": 22.57,
      "longitude": 88.36,
      "areaAcres": 80,
      "landType": "barren",
      "soilType": "Urban Fill",
      "waterAvailability": "low",
      "reforestationPriority": 3
    },
    {
      "landId": "WBL008",
      "landName": "Siliguri Suburban Patch",
      "state": "West Bengal",
      "district": "Siliguri",
      "nearbyForest": "Suburban Plantation Zone",
      "latitude": 26.71,
      "longitude": 88.42,
      "areaAcres": 120,
      "landType": "degraded",
      "soilType": "Alluvial Loam",
      "waterAvailability": "medium",
      "reforestationPriority": 4
    },
    {
      "landId": "WBL009",
      "landName": "Asansol Industrial Fringe Land",
      "state": "West Bengal",
      "district": "Asansol",
      "nearbyForest": "Industrial Plantation Zone",
      "latitude": 23.68,
      "longitude": 86.97,
      "areaAcres": 200,
      "landType": "abandoned",
      "soilType": "Industrial Fill",
      "waterAvailability": "low",
      "reforestationPriority": 3
    },
    {
      "landId": "WBL010",
      "landName": "Haldia Port Degraded Land",
      "state": "West Bengal",
      "district": "Haldia",
      "nearbyForest": "Port Plantation Zone",
      "latitude": 22.03,
      "longitude": 87.85,
      "areaAcres": 150,
      "landType": "degraded",
      "soilType": "Coastal Sand",
      "waterAvailability": "medium",
      "reforestationPriority": 4
    },
    {
      "landId": "WBL011",
      "landName": "Durgapur Industrial Zone Patch",
      "state": "West Bengal",
      "district": "Durgapur",
      "nearbyForest": "Industrial Plantation Zone",
      "latitude": 23.55,
      "longitude": 87.32,
      "areaAcres": 180,
      "landType": "abandoned",
      "soilType": "Industrial Fill",
      "waterAvailability": "low",
      "reforestationPriority": 3
    },
    {
      "landId": "WBL012",
      "landName": "Kharagpur Suburban Patch",
      "state": "West Bengal",
      "district": "Kharagpur",
      "nearbyForest": "Suburban Plantation Zone",
      "latitude": 22.33,
      "longitude": 87.32,
      "areaAcres": 100,
      "landType": "degraded",
      "soilType": "Alluvial Loam",
      "waterAvailability": "medium",
      "reforestationPriority": 4
    },
    {
      "landId": "WBL013",
      "landName": "Bankura Rural Degraded Land",
      "state": "West Bengal",
      "district": "Bankura",
      "nearbyForest": null,
      
      "latitude": 23.25,
      "longitude": 87.05,
      "areaAcres": 120,
      "landType": "degraded",
      "soilType": "Alluvial",
      "waterAvailability": "low",
      "reforestationPriority": 3
    },
    {
      "landId": "WBL014",
      "landName": "Purulia Rural Barren Land",
      "state": "West Bengal",
      "district": "Purulia",
      "nearbyForest": null,
      
      "latitude": 23.33,
      "longitude": 86.36,
      "areaAcres": 150,
      "landType": "barren",
      "soilType": "Rocky Loam",
      "waterAvailability": "low",
      "reforestationPriority": 3
    },
    {
      "landId": "WBL015",
      "landName": "Malda Riverbank Degraded Land",
      "state": "West Bengal",
      "district": "Malda",
      "nearbyForest": null,
      
      "latitude": 25.0,
      "longitude": 88.15,
      "areaAcres": 200,
      "landType": "degraded",
      "soilType": "Alluvial",
      "waterAvailability": "high",
      "reforestationPriority": 5
    },
    {
      "landId": "WBL016",
      "landName": "Cooch Behar Rural Patch",
      "state": "West Bengal",
      "district": "Cooch Behar",
      "nearbyForest": null,
      
      "latitude": 26.32,
      "longitude": 89.45,
      "areaAcres": 180,
      "landType": "degraded",
      "soilType": "Alluvial Loam",
      "waterAvailability": "medium",
      "reforestationPriority": 4
    },
    {
      "landId": "WBL017",
      "landName": "Birbhum Rural Degraded Land",
      "state": "West Bengal",
      "district": "Birbhum",
      "nearbyForest": null,
      
      "latitude": 23.67,
      "longitude": 87.05,
      "areaAcres": 150,
      "landType": "degraded",
      "soilType": null,
      "waterAvailability": "medium",
      "reforestationPriority": 4
    },
    {
      "landId": "WBL018",
      "landName": "Murshidabad Riverbank Patch",
      "state": "West Bengal",
      "district": "Murshidabad",
      "nearbyForest": null,
      
      "latitude": 24.15,
      "longitude": 88.35,
      "areaAcres": 180,
      "landType": "degraded",
      "soilType": "Alluvial",
      "waterAvailability": "high",
      "reforestationPriority": 5
    }
  ]
}
