{
  "lands": [
    {
      "landId": "BRL001",
      "landName": "Gandak Riverbank Degraded Land",
      "state": "Bihar",
      "district": "West Champaran",
      "nearbyForest": "Valmiki Tiger Reserve",
      "latitude": 27.45,
      "longitude": 84.15,
      "areaAcres": 260,
      "landType": "degraded",
      "soilType": "Alluvial",
      "waterAvailability": "high",
      "reforestationPriority": 5
    },
    {
      "landId": "BRL002",
      "landName": "Ganga Floodplain Patch",
      "state": "Bihar",
      "district": "Bhagalpur",
      "nearbyForest": "Vikramshila Dolphin Sanctuary",
      "latitude": 25.26,
      "longitude": 87.02,
      "areaAcres": 300,
      "landType": "abandoned",
      "soilType": "Alluvial",
      "waterAvailability": "high",
      "reforestationPriority": 5
    },
    {
      "landId": "BRL003",
      "landName": "Rajgir Hill Degraded Slope",
      "state": "Bihar",
      "district": "Nalanda",
      "nearbyForest": "Rajgir Wildlife Sanctuary",
      "latitude": 25.03,
      "longitude": 85.43,
      "areaAcres": 110,
      "landType": "degraded",
      "soilType": "Rocky Loam",
      "waterAvailability": "medium",
      "reforestationPriority": 4
    },
    {
      "landId": "BRL004",
      "landName": "Kaimur Plateau Fringe Land",
      "state": "Bihar",
      "district": "Kaimur",
      "nearbyForest": "Kaimur Wildlife Sanctuary",
      "latitude": 24.72,
      "longitude": 83.52,
      "areaAcres": 190,
      "landType": "barren",
      "soilType": "Red Sandy Soil",
      "waterAvailability": "medium",
      "reforestationPriority": 4
    },
    {
      "landId": "BRL005",
      "landName": "Muzaffarpur Canal Belt",
      "state": "Bihar",
      "district": "Muzaffarpur",
      "nearbyForest": "Agroforestry Plantation Zone",
      "latitude": 26.12,
      "longitude": 85.39,
      "areaAcres": 240,
      "landType": "abandoned",
      "soilType": "Alluvial",
      "waterAvailability": "high",
      "reforestationPriority": 5
    },
    {
      "landId": "BRL006",
      "landName": "Gaya Hills Degraded Land",
      "state": "Bihar",
      "district": "Gaya",
      "nearbyForest": "Barabar Caves Forest Area",
      "latitude": 24.79,
      "longitude": 85.01,
      "areaAcres": 150,
      "landType": "degraded",
      "soilType": "Rocky Loam",
      "waterAvailability": "medium",
      "reforestationPriority": 4
    },
    {
      "landId": "BRL007",
      "landName": "Purnia Floodplain Degraded Land",
      "state": "Bihar",
      "district": "Purnia",
      "nearbyForest": "Purnia Wildlife Sanctuary",
      "latitude": 25.77,
      "longitude": 87.47,
      "areaAcres": 220,
      "landType": "degraded",
      "soilType": "Alluvial",
      "waterAvailability": "high",
      "reforestationPriority": 5
    },
    {
      "landId": "BRL008",
      "landName": "Saran Riverbank Barren Land",
      "state": "Bihar",
      "district": "Saran",
      "nearbyForest": "Saran Agroforestry Zone",
      "latitude": 26.36,
      "longitude": 84.78,
      "areaAcres": 180,
      "landType": "barren",
      "soilType": "Alluvial",
      "waterAvailability": "medium",
      "reforestationPriority": 4
    },
    {
      "landId": "BRL009",
      "landName": "Begusarai Canal Fringe Degraded Land",
      "state": "Bihar",
      "district": "Begusarai",
      "nearbyForest": "Begusarai Agroforestry Zone",
      "latitude": 25.42,
      "longitude": 86.13,
      "areaAcres": 200,
      "landType": "degraded",
      "soilType": "Alluvial",
      "waterAvailability": "high",
      "reforestationPriority": 5
    },
    {
      "landId": "BRL010",
      "landName": "Madhubani Floodplain Abandoned Land",
      "state": "Bihar",
      "district": "Madhubani",
      "nearbyForest": null,
      "latitude": 26.35,
      "longitude": 86.07,
      "areaAcres": 250,
      "landType": null,
      
      "soilType": null,
      "waterAvailability": null,
      "reforestationPriority": 3
    },
    {
      "landId": "BRL011",
      "landName": "Darbhanga Canal Bank Degraded Land",
      "state": "Bihar",
      "district": "Darbhanga",
      "nearbyForest": null,
      "latitude": 26.15,
      "longitude": 85.89,
      "areaAcres": 170,
      "landType": "degraded",
      "soilType": "Alluvial",
      "waterAvailability": "high",
      "reforestationPriority": 4
    },
    {
      "landId": "BRL012",
      "landName": "Siwan Riverbank Barren Land",
      "state": "Bihar",
      "district": "Siwan",
      "nearbyForest": null,
      "latitude": 26.22,
      "longitude": 84.36,
      "areaAcres": 160,
      "landType": "barren",
      "soilType": null, 
      "waterAvailability": null, 
      "reforestationPriority": 3
    }
  ]
}
